{
  "type": "FeatureCollection",
  "note": "サンプルデータ（架空・デモ用）。本番では国土数値情報『指定緊急避難場所』等の実データに差し替えてください。座標は神奈川県藤沢・鎌倉沿岸周辺の概略値です。",
  "features": [
    {
      "type": "Feature",
      "geometry": { "type": "Point", "coordinates": [139.4820, 35.3055] },
      "properties": {
        "name": "片瀬海岸防災センター（サンプル）",
        "kind": "指定緊急避難場所",
        "disasters": ["earthquake", "flood"],
        "capacity": 800,
        "address": "神奈川県藤沢市片瀬海岸（サンプル）"
      }
    },
    {
      "type": "Feature",
      "geometry": { "type": "Point", "coordinates": [139.4806, 35.2996] },
      "properties": {
        "name": "江の島高台広場（サンプル）",
        "kind": "指定緊急避難場所",
        "disasters": ["earthquake", "tsunami"],
        "capacity": 400,
        "address": "神奈川県藤沢市江の島（サンプル）"
      }
    },
    {
      "type": "Feature",
      "geometry": { "type": "Point", "coordinates": [139.4770, 35.3170] },
      "properties": {
        "name": "鵠沼小学校（サンプル）",
        "kind": "指定避難所",
        "disasters": ["earthquake", "flood", "tsunami"],
        "capacity": 600,
        "address": "神奈川県藤沢市鵠沼（サンプル）"
      }
    },
    {
      "type": "Feature",
      "geometry": { "type": "Point", "coordinates": [139.4880, 35.3388] },
      "properties": {
        "name": "藤沢中央公園（サンプル）",
        "kind": "指定緊急避難場所",
        "disasters": ["earthquake", "tsunami", "flood"],
        "capacity": 1500,
        "address": "神奈川県藤沢市藤沢（サンプル）"
      }
    },
    {
      "type": "Feature",
      "geometry": { "type": "Point", "coordinates": [139.5070, 35.3050] },
      "properties": {
        "name": "鎌倉山高台避難地（サンプル）",
        "kind": "指定緊急避難場所",
        "disasters": ["earthquake", "tsunami", "flood"],
        "capacity": 300,
        "address": "神奈川県鎌倉市鎌倉山（サンプル）"
      }
    },
    {
      "type": "Feature",
      "geometry": { "type": "Point", "coordinates": [139.5100, 35.3200] },
      "properties": {
        "name": "手広地区センター（サンプル）",
        "kind": "指定避難所",
        "disasters": ["earthquake", "tsunami"],
        "capacity": 500,
        "address": "神奈川県鎌倉市手広（サンプル）"
      }
    },
    {
      "type": "Feature",
      "geometry": { "type": "Point", "coordinates": [139.5300, 35.3540] },
      "properties": {
        "name": "大船中学校（サンプル）",
        "kind": "指定避難所",
        "disasters": ["earthquake", "flood"],
        "capacity": 900,
        "address": "神奈川県鎌倉市大船（サンプル）"
      }
    },
    {
      "type": "Feature",
      "geometry": { "type": "Point", "coordinates": [139.4880, 35.3070] },
      "properties": {
        "name": "龍口寺周辺高台（サンプル）",
        "kind": "指定緊急避難場所",
        "disasters": ["tsunami", "landslide"],
        "capacity": 200,
        "address": "神奈川県藤沢市片瀬（サンプル）"
      }
    }
  ]
}
